{
"type": "FeatureCollection",
"name": "Lokasi_Kota_Desa",
"crs": { "type": "name", "properties": { "name": "urn:ogc:def:crs:OGC:1.3:CRS84" } },
"features": [
{ "type": "Feature", "properties": { "osm_id": "58957648", "code": 1002, "fclass": "town", "population": 24678, "name": "Andorra la Vella" }, "geometry": { "type": "Point", "coordinates": [ 1.5212467, 42.5069391 ] } },
{ "type": "Feature", "properties": { "osm_id": "58963219", "code": 1002, "fclass": "town", "population": 0, "name": "Ordino" }, "geometry": { "type": "Point", "coordinates": [ 1.5334945, 42.55615 ] } },
{ "type": "Feature", "properties": { "osm_id": "64954372", "code": 1004, "fclass": "hamlet", "population": 0, "name": "Aixàs" }, "geometry": { "type": "Point", "coordinates": [ 1.4641485, 42.4826042 ] } },
{ "type": "Feature", "properties": { "osm_id": "64954377", "code": 1003, "fclass": "village", "population": 0, "name": "Aubinyà" }, "geometry": { "type": "Point", "coordinates": [ 1.4921448, 42.45368 ] } },
{ "type": "Feature", "properties": { "osm_id": "64954382", "code": 1003, "fclass": "village", "population": 0, "name": "Juberri" }, "geometry": { "type": "Point", "coordinates": [ 1.4917822, 42.4391742 ] } },
{ "type": "Feature", "properties": { "osm_id": "64954385", "code": 1003, "fclass": "village", "population": 0, "name": "Nagol" }, "geometry": { "type": "Point", "coordinates": [ 1.499592, 42.4705142 ] } },
{ "type": "Feature", "properties": { "osm_id": "64954389", "code": 1004, "fclass": "hamlet", "population": 0, "name": "Anyós" }, "geometry": { "type": "Point", "coordinates": [ 1.5254826, 42.534361 ] } },
{ "type": "Feature", "properties": { "osm_id": "64954396", "code": 1004, "fclass": "hamlet", "population": 0, "name": "Els Vilars" }, "geometry": { "type": "Point", "coordinates": [ 1.5413834, 42.5168287 ] } },
{ "type": "Feature", "properties": { "osm_id": "64954400", "code": 1003, "fclass": "village", "population": 0, "name": "Bixessarri" }, "geometry": { "type": "Point", "coordinates": [ 1.4566808, 42.4836288 ] } },
{ "type": "Feature", "properties": { "osm_id": "64954404", "code": 1003, "fclass": "village", "population": 0, "name": "el Tarter" }, "geometry": { "type": "Point", "coordinates": [ 1.6496963, 42.5803334 ] } },
{ "type": "Feature", "properties": { "osm_id": "64954409", "code": 1003, "fclass": "village", "population": 0, "name": "Prats" }, "geometry": { "type": "Point", "coordinates": [ 1.5936564, 42.5605597 ] } },
{ "type": "Feature", "properties": { "osm_id": "64954415", "code": 1004, "fclass": "hamlet", "population": 0, "name": "Sispony" }, "geometry": { "type": "Point", "coordinates": [ 1.515627, 42.5338717 ] } },
{ "type": "Feature", "properties": { "osm_id": "64954417", "code": 1004, "fclass": "hamlet", "population": 0, "name": "els Plans" }, "geometry": { "type": "Point", "coordinates": [ 1.6329828, 42.5821459 ] } },
{ "type": "Feature", "properties": { "osm_id": "64954422", "code": 1004, "fclass": "hamlet", "population": 0, "name": "l’Aldosa de Canillo" }, "geometry": { "type": "Point", "coordinates": [ 1.6278149, 42.5795551 ] } },
{ "type": "Feature", "properties": { "osm_id": "64954429", "code": 1003, "fclass": "village", "population": 0, "name": "Sant Pere" }, "geometry": { "type": "Point", "coordinates": [ 1.6531626, 42.5785035 ] } },
{ "type": "Feature", "properties": { "osm_id": "64954433", "code": 1002, "fclass": "town", "population": 0, "name": "Canillo" }, "geometry": { "type": "Point", "coordinates": [ 1.5977647, 42.5668305 ] } },
{ "type": "Feature", "properties": { "osm_id": "64954435", "code": 1003, "fclass": "village", "population": 0, "name": "Sornás" }, "geometry": { "type": "Point", "coordinates": [ 1.5274027, 42.5649323 ] } },
{ "type": "Feature", "properties": { "osm_id": "64954437", "code": 1003, "fclass": "village", "population": 2996, "name": "Pas de la Casa" }, "geometry": { "type": "Point", "coordinates": [ 1.733494, 42.5447098 ] } },
{ "type": "Feature", "properties": { "osm_id": "64954441", "code": 1004, "fclass": "hamlet", "population": 0, "name": "Sant Joan de Caselles" }, "geometry": { "type": "Point", "coordinates": [ 1.6163247, 42.5710971 ] } },
{ "type": "Feature", "properties": { "osm_id": "64954447", "code": 1004, "fclass": "hamlet", "population": 0, "name": "l'Aldosa de la Massana" }, "geometry": { "type": "Point", "coordinates": [ 1.5228165, 42.5436783 ] } },
{ "type": "Feature", "properties": { "osm_id": "64954451", "code": 1003, "fclass": "village", "population": 0, "name": "el Serrat" }, "geometry": { "type": "Point", "coordinates": [ 1.5388976, 42.6195784 ] } },
{ "type": "Feature", "properties": { "osm_id": "64954457", "code": 1003, "fclass": "village", "population": 0, "name": "Ransol" }, "geometry": { "type": "Point", "coordinates": [ 1.6374847, 42.5816768 ] } },
{ "type": "Feature", "properties": { "osm_id": "64954460", "code": 1004, "fclass": "hamlet", "population": 0, "name": "el Pui" }, "geometry": { "type": "Point", "coordinates": [ 1.515555, 42.5476987 ] } },
{ "type": "Feature", "properties": { "osm_id": "64954464", "code": 1003, "fclass": "village", "population": 0, "name": "Vila" }, "geometry": { "type": "Point", "coordinates": [ 1.5666248, 42.5318538 ] } },
{ "type": "Feature", "properties": { "osm_id": "64954467", "code": 1003, "fclass": "village", "population": 0, "name": "Erts" }, "geometry": { "type": "Point", "coordinates": [ 1.4965904, 42.5614863 ] } },
{ "type": "Feature", "properties": { "osm_id": "64954472", "code": 1003, "fclass": "village", "population": 0, "name": "Ansalonga" }, "geometry": { "type": "Point", "coordinates": [ 1.5221532, 42.5690218 ] } },
{ "type": "Feature", "properties": { "osm_id": "64954477", "code": 1003, "fclass": "village", "population": 0, "name": "Engordany" }, "geometry": { "type": "Point", "coordinates": [ 1.5418913, 42.5120512 ] } },
{ "type": "Feature", "properties": { "osm_id": "64954483", "code": 1003, "fclass": "village", "population": 0, "name": "Arinsal" }, "geometry": { "type": "Point", "coordinates": [ 1.4844029, 42.5720821 ] } },
{ "type": "Feature", "properties": { "osm_id": "64954486", "code": 1002, "fclass": "town", "population": 9207, "name": "Sant Julià de Lòria" }, "geometry": { "type": "Point", "coordinates": [ 1.4923277, 42.4668541 ] } },
{ "type": "Feature", "properties": { "osm_id": "64954492", "code": 1004, "fclass": "hamlet", "population": 0, "name": "les Bons" }, "geometry": { "type": "Point", "coordinates": [ 1.5844704, 42.5385245 ] } },
{ "type": "Feature", "properties": { "osm_id": "64954503", "code": 1004, "fclass": "hamlet", "population": 0, "name": "Puiol del Piu" }, "geometry": { "type": "Point", "coordinates": [ 1.4919908, 42.5655548 ] } },
{ "type": "Feature", "properties": { "osm_id": "64954508", "code": 1003, "fclass": "village", "population": 0, "name": "Fontaneda" }, "geometry": { "type": "Point", "coordinates": [ 1.4640242, 42.4543091 ] } },
{ "type": "Feature", "properties": { "osm_id": "64954512", "code": 1003, "fclass": "village", "population": 0, "name": "Santa Coloma" }, "geometry": { "type": "Point", "coordinates": [ 1.4997052, 42.4949956 ] } },
{ "type": "Feature", "properties": { "osm_id": "64954515", "code": 1003, "fclass": "village", "population": 0, "name": "Pal" }, "geometry": { "type": "Point", "coordinates": [ 1.4759787, 42.5457992 ] } },
{ "type": "Feature", "properties": { "osm_id": "64954521", "code": 1003, "fclass": "village", "population": 0, "name": "Xixerella" }, "geometry": { "type": "Point", "coordinates": [ 1.4878668, 42.5531204 ] } },
{ "type": "Feature", "properties": { "osm_id": "64954525", "code": 1003, "fclass": "village", "population": 0, "name": "Aixovall" }, "geometry": { "type": "Point", "coordinates": [ 1.4887515, 42.4769809 ] } },
{ "type": "Feature", "properties": { "osm_id": "64954531", "code": 1003, "fclass": "village", "population": 0, "name": "Llorts" }, "geometry": { "type": "Point", "coordinates": [ 1.5261846, 42.5962642 ] } },
{ "type": "Feature", "properties": { "osm_id": "64954534", "code": 1004, "fclass": "hamlet", "population": 0, "name": "Mas d’Alins" }, "geometry": { "type": "Point", "coordinates": [ 1.4494549, 42.4413704 ] } },
{ "type": "Feature", "properties": { "osm_id": "64954538", "code": 1003, "fclass": "village", "population": 0, "name": "Soldeu" }, "geometry": { "type": "Point", "coordinates": [ 1.6682694, 42.5768944 ] } },
{ "type": "Feature", "properties": { "osm_id": "64954542", "code": 1004, "fclass": "hamlet", "population": 0, "name": "Mas de Ribafeta" }, "geometry": { "type": "Point", "coordinates": [ 1.493038, 42.570774 ] } },
{ "type": "Feature", "properties": { "osm_id": "64954546", "code": 1003, "fclass": "village", "population": 0, "name": "la Cortinada" }, "geometry": { "type": "Point", "coordinates": [ 1.5193446, 42.5755678 ] } },
{ "type": "Feature", "properties": { "osm_id": "64954554", "code": 1003, "fclass": "village", "population": 0, "name": "Llumeneres" }, "geometry": { "type": "Point", "coordinates": [ 1.5116811, 42.4721545 ] } },
{ "type": "Feature", "properties": { "osm_id": "64954560", "code": 1003, "fclass": "village", "population": 0, "name": "Arans" }, "geometry": { "type": "Point", "coordinates": [ 1.5180695, 42.5825312 ] } },
{ "type": "Feature", "properties": { "osm_id": "64954563", "code": 1002, "fclass": "town", "population": 0, "name": "La Massana" }, "geometry": { "type": "Point", "coordinates": [ 1.5163754, 42.5442014 ] } },
{ "type": "Feature", "properties": { "osm_id": "64954565", "code": 1004, "fclass": "hamlet", "population": 0, "name": "Escàs" }, "geometry": { "type": "Point", "coordinates": [ 1.5089987, 42.5468617 ] } },
{ "type": "Feature", "properties": { "osm_id": "64954570", "code": 1003, "fclass": "village", "population": 0, "name": "Segudet" }, "geometry": { "type": "Point", "coordinates": [ 1.5380568, 42.5570637 ] } },
{ "type": "Feature", "properties": { "osm_id": "64954584", "code": 1002, "fclass": "town", "population": 0, "name": "Encamp" }, "geometry": { "type": "Point", "coordinates": [ 1.5836096, 42.5360425 ] } },
{ "type": "Feature", "properties": { "osm_id": "64954589", "code": 1002, "fclass": "town", "population": 0, "name": "les Escaldes" }, "geometry": { "type": "Point", "coordinates": [ 1.5404067, 42.5090019 ] } },
{ "type": "Feature", "properties": { "osm_id": "64954593", "code": 1003, "fclass": "village", "population": 0, "name": "Aixirivall" }, "geometry": { "type": "Point", "coordinates": [ 1.5016173, 42.4620002 ] } },
{ "type": "Feature", "properties": { "osm_id": "64954598", "code": 1003, "fclass": "village", "population": 0, "name": "Certers" }, "geometry": { "type": "Point", "coordinates": [ 1.5061537, 42.4760797 ] } },
{ "type": "Feature", "properties": { "osm_id": "64954601", "code": 1003, "fclass": "village", "population": 0, "name": "Meritxell" }, "geometry": { "type": "Point", "coordinates": [ 1.5906405, 42.5536332 ] } },
{ "type": "Feature", "properties": { "osm_id": "258355185", "code": 1004, "fclass": "hamlet", "population": 0, "name": "Super Pal" }, "geometry": { "type": "Point", "coordinates": [ 1.4734913, 42.5429513 ] } },
{ "type": "Feature", "properties": { "osm_id": "258361905", "code": 1003, "fclass": "village", "population": 0, "name": "Grau Roig" }, "geometry": { "type": "Point", "coordinates": [ 1.7017913, 42.5368991 ] } },
{ "type": "Feature", "properties": { "osm_id": "262466673", "code": 1004, "fclass": "hamlet", "population": 0, "name": "el Vilar" }, "geometry": { "type": "Point", "coordinates": [ 1.5193017, 42.5745545 ] } },
{ "type": "Feature", "properties": { "osm_id": "262473680", "code": 1004, "fclass": "hamlet", "population": 0, "name": "el Forn" }, "geometry": { "type": "Point", "coordinates": [ 1.6028493, 42.5621207 ] } },
{ "type": "Feature", "properties": { "osm_id": "264496511", "code": 1004, "fclass": "hamlet", "population": 0, "name": "el Cortalet" }, "geometry": { "type": "Point", "coordinates": [ 1.526383, 42.5389647 ] } },
{ "type": "Feature", "properties": { "osm_id": "266324553", "code": 1004, "fclass": "hamlet", "population": 0, "name": "Mas d'en Soler" }, "geometry": { "type": "Point", "coordinates": [ 1.5180111, 42.5776121 ] } },
{ "type": "Feature", "properties": { "osm_id": "316985105", "code": 1004, "fclass": "hamlet", "population": 0, "name": "les Salines" }, "geometry": { "type": "Point", "coordinates": [ 1.5366914, 42.610325 ] } },
{ "type": "Feature", "properties": { "osm_id": "1241614160", "code": 1050, "fclass": "locality", "population": 0, "name": "Coma Extremera" }, "geometry": { "type": "Point", "coordinates": [ 1.6342784, 42.4647209 ] } },
{ "type": "Feature", "properties": { "osm_id": "1241614282", "code": 1050, "fclass": "locality", "population": 0, "name": "el Rebollar" }, "geometry": { "type": "Point", "coordinates": [ 1.462446, 42.4346869 ] } },
{ "type": "Feature", "properties": { "osm_id": "1241614503", "code": 1050, "fclass": "locality", "population": 0, "name": "la Vaca Morta" }, "geometry": { "type": "Point", "coordinates": [ 1.6958275, 42.4803192 ] } },
{ "type": "Feature", "properties": { "osm_id": "1241625982", "code": 1050, "fclass": "locality", "population": 0, "name": "l'Obaga" }, "geometry": { "type": "Point", "coordinates": [ 1.4934925, 42.4322803 ] } },
{ "type": "Feature", "properties": { "osm_id": "1241632609", "code": 1050, "fclass": "locality", "population": 0, "name": "Calm Borrut" }, "geometry": { "type": "Point", "coordinates": [ 1.5572017, 42.4541824 ] } },
{ "type": "Feature", "properties": { "osm_id": "1241636113", "code": 1050, "fclass": "locality", "population": 0, "name": "Roc d'Aïll" }, "geometry": { "type": "Point", "coordinates": [ 1.4433447, 42.4598344 ] } },
{ "type": "Feature", "properties": { "osm_id": "1241641983", "code": 1050, "fclass": "locality", "population": 0, "name": "Planell de la Tosa" }, "geometry": { "type": "Point", "coordinates": [ 1.4553429, 42.5288375 ] } },
{ "type": "Feature", "properties": { "osm_id": "2125730238", "code": 1003, "fclass": "village", "population": 0, "name": "Engolasters" }, "geometry": { "type": "Point", "coordinates": [ 1.5592332, 42.5105107 ] } },
{ "type": "Feature", "properties": { "osm_id": "2125770584", "code": 1003, "fclass": "village", "population": 0, "name": "la Margineda" }, "geometry": { "type": "Point", "coordinates": [ 1.4913963, 42.4870099 ] } },
{ "type": "Feature", "properties": { "osm_id": "2851877050", "code": 1050, "fclass": "locality", "population": 0, "name": "la Tosa de les Mussoles" }, "geometry": { "type": "Point", "coordinates": [ 1.6827607, 42.6221405 ] } },
{ "type": "Feature", "properties": { "osm_id": "3631189564", "code": 1050, "fclass": "locality", "population": 0, "name": "Coma Estremera" }, "geometry": { "type": "Point", "coordinates": [ 1.6920402, 42.5143167 ] } },
{ "type": "Feature", "properties": { "osm_id": "3631190198", "code": 1050, "fclass": "locality", "population": 0, "name": "Els Collels" }, "geometry": { "type": "Point", "coordinates": [ 1.698499, 42.5145223 ] } },
{ "type": "Feature", "properties": { "osm_id": "3631190199", "code": 1050, "fclass": "locality", "population": 0, "name": "Bosc dels Collels" }, "geometry": { "type": "Point", "coordinates": [ 1.6996577, 42.5242329 ] } },
{ "type": "Feature", "properties": { "osm_id": "3631190200", "code": 1050, "fclass": "locality", "population": 0, "name": "Bosc del Peu dels Pessons" }, "geometry": { "type": "Point", "coordinates": [ 1.693671, 42.5273957 ] } },
{ "type": "Feature", "properties": { "osm_id": "3631202189", "code": 1050, "fclass": "locality", "population": 0, "name": "Cretes de Gargantillar" }, "geometry": { "type": "Point", "coordinates": [ 1.6553393, 42.5063496 ] } },
{ "type": "Feature", "properties": { "osm_id": "3631202408", "code": 1050, "fclass": "locality", "population": 0, "name": "Pleta de les Bacives" }, "geometry": { "type": "Point", "coordinates": [ 1.6504048, 42.4970499 ] } },
{ "type": "Feature", "properties": { "osm_id": "3632562618", "code": 1050, "fclass": "locality", "population": 0, "name": "Picnic del Travenc" }, "geometry": { "type": "Point", "coordinates": [ 1.6981841, 42.6017124 ] } },
{ "type": "Feature", "properties": { "osm_id": "3632608734", "code": 1050, "fclass": "locality", "population": 0, "name": "Pont de la Baladosa" }, "geometry": { "type": "Point", "coordinates": [ 1.6881738, 42.6020117 ] } },
{ "type": "Feature", "properties": { "osm_id": "3671959254", "code": 1050, "fclass": "locality", "population": 0, "name": "Clot Sord" }, "geometry": { "type": "Point", "coordinates": [ 1.6564357, 42.5997002 ] } },
{ "type": "Feature", "properties": { "osm_id": "3723224087", "code": 1050, "fclass": "locality", "population": 0, "name": "La Planada" }, "geometry": { "type": "Point", "coordinates": [ 1.5980624, 42.6076767 ] } },
{ "type": "Feature", "properties": { "osm_id": "3723369585", "code": 1050, "fclass": "locality", "population": 0, "name": "Planells de Caraup" }, "geometry": { "type": "Point", "coordinates": [ 1.6495159, 42.6110007 ] } },
{ "type": "Feature", "properties": { "osm_id": "3731998600", "code": 1050, "fclass": "locality", "population": 0, "name": "Circ dels Pessons" }, "geometry": { "type": "Point", "coordinates": [ 1.6661221, 42.5101735 ] } },
{ "type": "Feature", "properties": { "osm_id": "3750453587", "code": 1050, "fclass": "locality", "population": 0, "name": "Pla de l'Estany" }, "geometry": { "type": "Point", "coordinates": [ 1.4614697, 42.5923186 ] } },
{ "type": "Feature", "properties": { "osm_id": "3885809195", "code": 1050, "fclass": "locality", "population": 0, "name": "Jardí de Riba" }, "geometry": { "type": "Point", "coordinates": [ 1.6425457, 42.567916 ] } },
{ "type": "Feature", "properties": { "osm_id": "3887374063", "code": 1050, "fclass": "locality", "population": 0, "name": "Obac d'Incles" }, "geometry": { "type": "Point", "coordinates": [ 1.6804737, 42.5961394 ] } },
{ "type": "Feature", "properties": { "osm_id": "3887374064", "code": 1050, "fclass": "locality", "population": 0, "name": "Obaga de Juclar" }, "geometry": { "type": "Point", "coordinates": [ 1.6997139, 42.6120189 ] } },
{ "type": "Feature", "properties": { "osm_id": "3887374065", "code": 1050, "fclass": "locality", "population": 0, "name": "Pleta de la Cabana Sorda" }, "geometry": { "type": "Point", "coordinates": [ 1.6810514, 42.6072321 ] } },
{ "type": "Feature", "properties": { "osm_id": "3887374066", "code": 1050, "fclass": "locality", "population": 0, "name": "Solana de Juclar" }, "geometry": { "type": "Point", "coordinates": [ 1.7001913, 42.6057878 ] } },
{ "type": "Feature", "properties": { "osm_id": "3887374067", "code": 1050, "fclass": "locality", "population": 0, "name": "Tosa d'Incles" }, "geometry": { "type": "Point", "coordinates": [ 1.6914803, 42.5860977 ] } },
{ "type": "Feature", "properties": { "osm_id": "3887374068", "code": 1050, "fclass": "locality", "population": 0, "name": "Tosa de Juclar" }, "geometry": { "type": "Point", "coordinates": [ 1.7146635, 42.5993811 ] } },
{ "type": "Feature", "properties": { "osm_id": "3887568446", "code": 1050, "fclass": "locality", "population": 0, "name": "Obac d'Envalira" }, "geometry": { "type": "Point", "coordinates": [ 1.6762199, 42.5621744 ] } },
{ "type": "Feature", "properties": { "osm_id": "3887568447", "code": 1050, "fclass": "locality", "population": 0, "name": "Obac de Canillo" }, "geometry": { "type": "Point", "coordinates": [ 1.6313315, 42.5725757 ] } },
{ "type": "Feature", "properties": { "osm_id": "3887568448", "code": 1050, "fclass": "locality", "population": 0, "name": "Obac de Soldeu" }, "geometry": { "type": "Point", "coordinates": [ 1.6651981, 42.5711563 ] } },
{ "type": "Feature", "properties": { "osm_id": "3887568449", "code": 1050, "fclass": "locality", "population": 0, "name": "Obac del Tarter" }, "geometry": { "type": "Point", "coordinates": [ 1.6473317, 42.5724856 ] } },
{ "type": "Feature", "properties": { "osm_id": "3940604188", "code": 1003, "fclass": "village", "population": 0, "name": "les Bordes d'Envalira" }, "geometry": { "type": "Point", "coordinates": [ 1.6848967, 42.5599673 ] } },
{ "type": "Feature", "properties": { "osm_id": "3979427484", "code": 1050, "fclass": "locality", "population": 0, "name": "Carena de Pessons" }, "geometry": { "type": "Point", "coordinates": [ 1.6590712, 42.5150624 ] } },
{ "type": "Feature", "properties": { "osm_id": "3979428174", "code": 1050, "fclass": "locality", "population": 0, "name": "Cap dels Agols" }, "geometry": { "type": "Point", "coordinates": [ 1.6228805, 42.5004593 ] } },
{ "type": "Feature", "properties": { "osm_id": "3979440106", "code": 1050, "fclass": "locality", "population": 0, "name": "Canal de la Bova" }, "geometry": { "type": "Point", "coordinates": [ 1.587734, 42.4949731 ] } },
{ "type": "Feature", "properties": { "osm_id": "3979440107", "code": 1050, "fclass": "locality", "population": 0, "name": "Canal del Pletiu" }, "geometry": { "type": "Point", "coordinates": [ 1.5834562, 42.4977916 ] } },
{ "type": "Feature", "properties": { "osm_id": "3979472468", "code": 1050, "fclass": "locality", "population": 0, "name": "Calm Ramonet" }, "geometry": { "type": "Point", "coordinates": [ 1.559722, 42.4493879 ] } },
{ "type": "Feature", "properties": { "osm_id": "3979957978", "code": 1050, "fclass": "locality", "population": 0, "name": "Pleta dels Borrencs" }, "geometry": { "type": "Point", "coordinates": [ 1.6787348, 42.5911745 ] } },
{ "type": "Feature", "properties": { "osm_id": "3981463738", "code": 1050, "fclass": "locality", "population": 0, "name": "Pleta de les Planes" }, "geometry": { "type": "Point", "coordinates": [ 1.5069384, 42.6397449 ] } },
{ "type": "Feature", "properties": { "osm_id": "4065022132", "code": 1050, "fclass": "locality", "population": 0, "name": "Pla de les Pedres" }, "geometry": { "type": "Point", "coordinates": [ 1.6802805, 42.5531504 ] } },
{ "type": "Feature", "properties": { "osm_id": "4065022133", "code": 1050, "fclass": "locality", "population": 0, "name": "els Espiolets" }, "geometry": { "type": "Point", "coordinates": [ 1.6645842, 42.5634635 ] } },
{ "type": "Feature", "properties": { "osm_id": "4314643597", "code": 1050, "fclass": "locality", "population": 0, "name": "Aixás" }, "geometry": { "type": "Point", "coordinates": [ 1.4672624, 42.4864514 ] } },
{ "type": "Feature", "properties": { "osm_id": "4314644011", "code": 1050, "fclass": "locality", "population": 0, "name": "Coma d'Arc" }, "geometry": { "type": "Point", "coordinates": [ 1.4821463, 42.6317796 ] } },
{ "type": "Feature", "properties": { "osm_id": "4314644016", "code": 1050, "fclass": "locality", "population": 0, "name": "Planells de Rialb" }, "geometry": { "type": "Point", "coordinates": [ 1.5572315, 42.6457671 ] } },
{ "type": "Feature", "properties": { "osm_id": "5344496348", "code": 1050, "fclass": "locality", "population": 0, "name": "Prat dels Orris" }, "geometry": { "type": "Point", "coordinates": [ 1.6328146, 42.537133 ] } },
{ "type": "Feature", "properties": { "osm_id": "5753637937", "code": 1050, "fclass": "locality", "population": 0, "name": "Pleta de Duedra" }, "geometry": { "type": "Point", "coordinates": [ 1.5654291, 42.6207546 ] } },
{ "type": "Feature", "properties": { "osm_id": "5753646717", "code": 1050, "fclass": "locality", "population": 0, "name": "Planell dels Beços" }, "geometry": { "type": "Point", "coordinates": [ 1.5606843, 42.6209579 ] } },
{ "type": "Feature", "properties": { "osm_id": "5753654046", "code": 1050, "fclass": "locality", "population": 0, "name": "estret de l'Estanyò" }, "geometry": { "type": "Point", "coordinates": [ 1.5712737, 42.6144131 ] } },
{ "type": "Feature", "properties": { "osm_id": "5753657986", "code": 1050, "fclass": "locality", "population": 0, "name": "saleres de l'Estanyò" }, "geometry": { "type": "Point", "coordinates": [ 1.5725933, 42.613363 ] } },
{ "type": "Feature", "properties": { "osm_id": "5753699365", "code": 1050, "fclass": "locality", "population": 0, "name": "pleta de la Rabassa" }, "geometry": { "type": "Point", "coordinates": [ 1.5598212, 42.6319062 ] } },
{ "type": "Feature", "properties": { "osm_id": "5753700012", "code": 1050, "fclass": "locality", "population": 0, "name": "pas del Monjo" }, "geometry": { "type": "Point", "coordinates": [ 1.5607337, 42.6389858 ] } },
{ "type": "Feature", "properties": { "osm_id": "6312742085", "code": 1050, "fclass": "locality", "population": 0, "name": "el Conangle" }, "geometry": { "type": "Point", "coordinates": [ 1.5231074, 42.4338657 ] } },
{ "type": "Feature", "properties": { "osm_id": "6312742111", "code": 1050, "fclass": "locality", "population": 0, "name": "Tolls de l'Olla" }, "geometry": { "type": "Point", "coordinates": [ 1.5684957, 42.4697581 ] } },
{ "type": "Feature", "properties": { "osm_id": "6312742112", "code": 1050, "fclass": "locality", "population": 0, "name": "Pleta de Claror" }, "geometry": { "type": "Point", "coordinates": [ 1.5679957, 42.4760922 ] } },
{ "type": "Feature", "properties": { "osm_id": "6312742113", "code": 1004, "fclass": "hamlet", "population": 0, "name": "Ràmio" }, "geometry": { "type": "Point", "coordinates": [ 1.5725423, 42.4973204 ] } },
{ "type": "Feature", "properties": { "osm_id": "6312783593", "code": 1050, "fclass": "locality", "population": 0, "name": "la Cabanella" }, "geometry": { "type": "Point", "coordinates": [ 1.4615895, 42.5201131 ] } },
{ "type": "Feature", "properties": { "osm_id": "6312783622", "code": 1004, "fclass": "hamlet", "population": 0, "name": "Bordes de Cardameller" }, "geometry": { "type": "Point", "coordinates": [ 1.461772, 42.5421591 ] } },
{ "type": "Feature", "properties": { "osm_id": "6533776954", "code": 1004, "fclass": "hamlet", "population": 0, "name": "Entremesaigües" }, "geometry": { "type": "Point", "coordinates": [ 1.5601251, 42.4981805 ] } },
{ "type": "Feature", "properties": { "osm_id": "7473176235", "code": 1050, "fclass": "locality", "population": 0, "name": "Planells Secants" }, "geometry": { "type": "Point", "coordinates": [ 1.5326082, 42.435482 ] } },
{ "type": "Feature", "properties": { "osm_id": "9516682350", "code": 1050, "fclass": "locality", "population": 0, "name": "Clot de Port Negre" }, "geometry": { "type": "Point", "coordinates": [ 1.5656826, 42.4654721 ] } },
{ "type": "Feature", "properties": { "osm_id": "9516682351", "code": 1050, "fclass": "locality", "population": 0, "name": "Calm de Claror" }, "geometry": { "type": "Point", "coordinates": [ 1.5507444, 42.4680832 ] } },
{ "type": "Feature", "properties": { "osm_id": "9516682359", "code": 1050, "fclass": "locality", "population": 0, "name": "Costa de Perafita" }, "geometry": { "type": "Point", "coordinates": [ 1.5671873, 42.4829225 ] } },
{ "type": "Feature", "properties": { "osm_id": "9516682360", "code": 1050, "fclass": "locality", "population": 0, "name": "Costa Verda" }, "geometry": { "type": "Point", "coordinates": [ 1.5684182, 42.4896709 ] } },
{ "type": "Feature", "properties": { "osm_id": "9516682361", "code": 1050, "fclass": "locality", "population": 0, "name": "Solà dels Sulls" }, "geometry": { "type": "Point", "coordinates": [ 1.5657239, 42.4878656 ] } },
{ "type": "Feature", "properties": { "osm_id": "9516682363", "code": 1050, "fclass": "locality", "population": 0, "name": "Solà d'Entremesaigües" }, "geometry": { "type": "Point", "coordinates": [ 1.5555324, 42.5007911 ] } },
{ "type": "Feature", "properties": { "osm_id": "9559921515", "code": 1050, "fclass": "locality", "population": 0, "name": "la Vaquerísia" }, "geometry": { "type": "Point", "coordinates": [ 1.4479578, 42.5486761 ] } },
{ "type": "Feature", "properties": { "osm_id": "9559921519", "code": 1050, "fclass": "locality", "population": 0, "name": "Pla de la Cot" }, "geometry": { "type": "Point", "coordinates": [ 1.4726446, 42.5298867 ] } },
{ "type": "Feature", "properties": { "osm_id": "9706624136", "code": 1004, "fclass": "hamlet", "population": 0, "name": "La Comella" }, "geometry": { "type": "Point", "coordinates": [ 1.528981, 42.5007842 ] } },
{ "type": "Feature", "properties": { "osm_id": "9708326171", "code": 1050, "fclass": "locality", "population": 0, "name": "Obaga de l'Avier" }, "geometry": { "type": "Point", "coordinates": [ 1.5421909, 42.4803113 ] } },
{ "type": "Feature", "properties": { "osm_id": "9708339703", "code": 1050, "fclass": "locality", "population": 0, "name": "Terregalls" }, "geometry": { "type": "Point", "coordinates": [ 1.5296231, 42.4967547 ] } },
{ "type": "Feature", "properties": { "osm_id": "9713271899", "code": 1050, "fclass": "locality", "population": 0, "name": "El Fornell" }, "geometry": { "type": "Point", "coordinates": [ 1.5102597, 42.521593 ] } },
{ "type": "Feature", "properties": { "osm_id": "9753977756", "code": 1004, "fclass": "hamlet", "population": 0, "name": "Bordes d'Engolasters" }, "geometry": { "type": "Point", "coordinates": [ 1.5633317, 42.5118459 ] } },
{ "type": "Feature", "properties": { "osm_id": "9753977757", "code": 1004, "fclass": "hamlet", "population": 0, "name": "Les Cases del Vilar" }, "geometry": { "type": "Point", "coordinates": [ 1.5598934, 42.5093027 ] } },
{ "type": "Feature", "properties": { "osm_id": "9753977758", "code": 1004, "fclass": "hamlet", "population": 0, "name": "Bordes del Vilar" }, "geometry": { "type": "Point", "coordinates": [ 1.557395, 42.5122374 ] } },
{ "type": "Feature", "properties": { "osm_id": "9753977778", "code": 1050, "fclass": "locality", "population": 0, "name": "Agulles d'Engolasters" }, "geometry": { "type": "Point", "coordinates": [ 1.5732856, 42.5157016 ] } },
{ "type": "Feature", "properties": { "osm_id": "12534045771", "code": 1050, "fclass": "locality", "population": 0, "name": "el Bullidor" }, "geometry": { "type": "Point", "coordinates": [ 1.7239045, 42.5468249 ] } },
{ "type": "Feature", "properties": { "osm_id": "12534045772", "code": 1050, "fclass": "locality", "population": 0, "name": "Costa de Port Dret" }, "geometry": { "type": "Point", "coordinates": [ 1.699099, 42.5759328 ] } },
{ "type": "Feature", "properties": { "osm_id": "12534045774", "code": 1050, "fclass": "locality", "population": 0, "name": "els Colells" }, "geometry": { "type": "Point", "coordinates": [ 1.6896706, 42.5963992 ] } },
{ "type": "Feature", "properties": { "osm_id": "12534045775", "code": 1050, "fclass": "locality", "population": 0, "name": "Obac d'Incles" }, "geometry": { "type": "Point", "coordinates": [ 1.6865951, 42.5985024 ] } },
{ "type": "Feature", "properties": { "osm_id": "12534045776", "code": 1050, "fclass": "locality", "population": 0, "name": "Clot de les Fonts" }, "geometry": { "type": "Point", "coordinates": [ 1.6872789, 42.589958 ] } },
{ "type": "Feature", "properties": { "osm_id": "12688177672", "code": 1050, "fclass": "locality", "population": 0, "name": "Planell Gran" }, "geometry": { "type": "Point", "coordinates": [ 1.5667835, 42.4725856 ] } },
{ "type": "Feature", "properties": { "osm_id": "12688177673", "code": 1050, "fclass": "locality", "population": 0, "name": "Planells de Perafita" }, "geometry": { "type": "Point", "coordinates": [ 1.5803783, 42.4784254 ] } },
{ "type": "Feature", "properties": { "osm_id": "12688200311", "code": 1050, "fclass": "locality", "population": 0, "name": "els Astrells" }, "geometry": { "type": "Point", "coordinates": [ 1.5581303, 42.5055425 ] } },
{ "type": "Feature", "properties": { "osm_id": "12688200312", "code": 1050, "fclass": "locality", "population": 0, "name": "Clots de la Febrerussa" }, "geometry": { "type": "Point", "coordinates": [ 1.5478086, 42.4578599 ] } },
{ "type": "Feature", "properties": { "osm_id": "12688200313", "code": 1050, "fclass": "locality", "population": 0, "name": "el Cubil" }, "geometry": { "type": "Point", "coordinates": [ 1.5477288, 42.4400823 ] } },
{ "type": "Feature", "properties": { "osm_id": "12699956414", "code": 1050, "fclass": "locality", "population": 0, "name": "Roques Negres" }, "geometry": { "type": "Point", "coordinates": [ 1.4695355, 42.5080204 ] } },
{ "type": "Feature", "properties": { "osm_id": "12699956416", "code": 1050, "fclass": "locality", "population": 0, "name": "Clot de la Coma del Prat" }, "geometry": { "type": "Point", "coordinates": [ 1.4687258, 42.5183341 ] } },
{ "type": "Feature", "properties": { "osm_id": "12699956420", "code": 1050, "fclass": "locality", "population": 0, "name": "Clot de la Comellada" }, "geometry": { "type": "Point", "coordinates": [ 1.4631831, 42.5402009 ] } },
{ "type": "Feature", "properties": { "osm_id": "12842226971", "code": 1050, "fclass": "locality", "population": 0, "name": "Bordes de Setúria" }, "geometry": { "type": "Point", "coordinates": [ 1.4398521, 42.5455987 ] } },
{ "type": "Feature", "properties": { "osm_id": "12842226972", "code": 1050, "fclass": "locality", "population": 0, "name": "Salador de l'Andorrana" }, "geometry": { "type": "Point", "coordinates": [ 1.4338361, 42.5462319 ] } },
{ "type": "Feature", "properties": { "osm_id": "12842226973", "code": 1050, "fclass": "locality", "population": 0, "name": "Bosc de les Feixes" }, "geometry": { "type": "Point", "coordinates": [ 1.4364274, 42.5439199 ] } },
{ "type": "Feature", "properties": { "osm_id": "12842226974", "code": 1050, "fclass": "locality", "population": 0, "name": "el Pla Rodó" }, "geometry": { "type": "Point", "coordinates": [ 1.4360237, 42.5427014 ] } },
{ "type": "Feature", "properties": { "osm_id": "12842226975", "code": 1050, "fclass": "locality", "population": 0, "name": "Solana de Coll Pla" }, "geometry": { "type": "Point", "coordinates": [ 1.4340575, 42.5502706 ] } },
{ "type": "Feature", "properties": { "osm_id": "12842226980", "code": 1050, "fclass": "locality", "population": 0, "name": "Costa Salamandra" }, "geometry": { "type": "Point", "coordinates": [ 1.4365528, 42.5520633 ] } },
{ "type": "Feature", "properties": { "osm_id": "12842226981", "code": 1050, "fclass": "locality", "population": 0, "name": "Pleta de les Bacives" }, "geometry": { "type": "Point", "coordinates": [ 1.4365268, 42.5573294 ] } },
{ "type": "Feature", "properties": { "osm_id": "12842226982", "code": 1050, "fclass": "locality", "population": 0, "name": "Coma de Setúria" }, "geometry": { "type": "Point", "coordinates": [ 1.442113, 42.5553151 ] } },
{ "type": "Feature", "properties": { "osm_id": "12842226983", "code": 1050, "fclass": "locality", "population": 0, "name": "Costa de la Devesa" }, "geometry": { "type": "Point", "coordinates": [ 1.4448606, 42.5583173 ] } },
{ "type": "Feature", "properties": { "osm_id": "12842226984", "code": 1050, "fclass": "locality", "population": 0, "name": "l'Espeluga" }, "geometry": { "type": "Point", "coordinates": [ 1.4410192, 42.5604754 ] } },
{ "type": "Feature", "properties": { "osm_id": "12842226985", "code": 1050, "fclass": "locality", "population": 0, "name": "els Rocs Alts" }, "geometry": { "type": "Point", "coordinates": [ 1.4339733, 42.5587132 ] } },
{ "type": "Feature", "properties": { "osm_id": "12842226989", "code": 1050, "fclass": "locality", "population": 0, "name": "Serrat del Coll Pla" }, "geometry": { "type": "Point", "coordinates": [ 1.4298253, 42.5559798 ] } },
{ "type": "Feature", "properties": { "osm_id": "12842227000", "code": 1050, "fclass": "locality", "population": 0, "name": "els Llacs" }, "geometry": { "type": "Point", "coordinates": [ 1.4210775, 42.5424913 ] } },
{ "type": "Feature", "properties": { "osm_id": "12842266001", "code": 1050, "fclass": "locality", "population": 0, "name": "Montsec" }, "geometry": { "type": "Point", "coordinates": [ 1.4159344, 42.543536 ] } },
{ "type": "Feature", "properties": { "osm_id": "12842266002", "code": 1050, "fclass": "locality", "population": 0, "name": "Bosc dels Llacs" }, "geometry": { "type": "Point", "coordinates": [ 1.4255117, 42.5403309 ] } },
{ "type": "Feature", "properties": { "osm_id": "12842266003", "code": 1050, "fclass": "locality", "population": 0, "name": "Bosc del Pla Rodó" }, "geometry": { "type": "Point", "coordinates": [ 1.431472, 42.5411101 ] } },
{ "type": "Feature", "properties": { "osm_id": "12842266004", "code": 1050, "fclass": "locality", "population": 0, "name": "Planell de la Font de l'Altar" }, "geometry": { "type": "Point", "coordinates": [ 1.4231804, 42.5386398 ] } }
]
}
